Category,StoreType,Address,Region,lng,lat,OperatingHours,Telephone,,
NTUC,Fairprice,"BUKIT BATOK MRT, 10 Bukit Batok Central, #01- 08, Singapore 659958",West,103.749581,1.348822,7:00 AM - 11:30 PM,65696260,,
NTUC,Fairprice Finest,"BUKIT HO SWEE, 50 Havelock Road, #01-755, Singapore 160050",Central,103.82666,1.289806,12:00 AM - 11:59 PM,"62785506, 62785536",,
NTUC,,"BOON LAY, 221 Boon Lay Place, #02-200, Boon Lay Shopping Complex, Singapore 640221",West,103.712472,1.346367,12:00 AM - 11:59 PM,"62640398, 62657986",,
NTUC,,"BUKIT MERAH, 166 Bukit Merah Central, #02-3531, Singapore 150166",Central,103.817549,1.282843,7:00 AM - 10:00 PM,"62734325, 62733163",,
NTUC,,"BEDOK NORTH A, 212 Bedok North Street 1, #01- 147, Singapore 460212",East,103.931573,1.325958,12:00 AM - 11:59 PM,"64438038, 64438538",,
NTUC,,"BEDOK NORTH BLK 89, 89 Bedok North Street 4, #01-77/79, Singapore 460089",East,103.938252,1.33211,12:00 AM - 11:59 PM,64499517,,
NTUC,FairPrice Finest,"BUKIT PANJANG PLAZA, 1 Jelebu Road, #01-15 & 02-20, Bukit Panjang Plaza, Singapore 677743",West,103.764145,1.380367,8:00 AM - 11:00 PM,"67628876, 67626746",,
NTUC,,"BEDOK RESERVOIR, 745 Bedok Reservoir Road, #01-3015, Singapore 470745",East,103.921806,1.337336,12:00 AM - 11:59 PM,64451072,,
NTUC,,"BISHAN BLK 510, 510 Bishan Street 13, #01-520, Singapore 570510",Central,103.849741,1.348907,12:00 AM - 11:59 PM,"63536036, 63536040",,
NTUC,FairPrice Finest,"BUKIT TIMAH PLAZA, 1 Jalan Anak Bukit, #B1-01 & #B2-01, Bukit Timah Plaza, Singapore 588996",Central,103.778688,1.338903,12:00 AM - 11:59 PM,"64688415, 64684923",,
NTUC,,"CHANGI AIRPORT T2, 65 Airport Boulevard, #B16- 029, Basement Level South Terminal 2, Singapore 819643",East,103.989232,1.355174,7:00 AM - 11:00 PM,"65431239, 65431147",,
NTUC,,"CLEMENTI A, 451 Clementi Ave 3, #01-307, Singapore 120451",West,103.765886,1.312924,12:00 AM - 11:59 PM,"67743663, 67740890",,
NTUC,,"CLEMENTI BLK 352, 352 Clementi Ave 2, #01- 141/143, Singapore 120352",West,103.771188,1.314275,12:00 AM - 11:59 PM,"67743657, 67745642",,
NTUC,,"CORONATION PLAZA, 587 Bukit Timah Road, #01- 01, Coronation Plaza, Singapore 269707",Central,103.810019,1.323844,8:00 AM - 11:00 PM,"64696245, 64696244",,
NTUC,,"EASTPOINT, 1 Simei Street 6, Singapore 528578",East,103.953042,1.342744,12:00 AM - 11:59 PM,"67860985, 67862467",,
NTUC,,"GEYLANG EAST, 114 Aljunied Ave 2, #01-75, Singapore 380114",Central,103.886849,1.32169,12:00 AM - 11:59 PM,"67488493, 67488494",,
NTUC,FairPrice Finest,"HOUGANG, 202 Hougang Street 21, #01-00, Singapore 530202",North-East,103.884075,1.357433,12:00 AM - 11:59 PM,"62870702, 62870703",,
NTUC,,"HOUGANG BLK 682, 682 Hougang Ave 4, #01-310, Singapore 530682",North-East,103.885383,1.374661,12:00 AM - 11:59 PM,63865586,,
NTUC,,"HOUGANG LIFESTYLE MALL, 90 Hougang Ave 10, #B1-07, Hougang Mall, Singapore 538766",North-East,103.893944,1.372602,8:00 AM - 10:00 PM,"63873123, 63873115",,
NTUC,,"JURONG EAST, 135 Jurong Gateway Road, #01-337, Singapore 600135",West,103.739689,1.333789,12:00 AM - 11:59 PM,"65608547, 65608364",,
NTUC,,"JURONG POINT, 1 Jurong West Central 2, #B1-09, Jurong Point, Singapore 648886",West,103.706742,1.339505,8:00 AM - 11:00 PM,"67924563, 67926091",,
NTUC,,"JALAN TECK WHYE, 140 Teck Whye Lane, #01- 351, Singapore 680140",West,103.753055,1.379958,12:00 AM - 11:59 PM,"67657211, 67657297",,
NTUC,,"JURONG WEST, 498 Jurong West Street 41, #01- 434/436/438, Singapore 640498",West,103.724111,1.348658,12:00 AM - 11:59 PM,65670073,,
NTUC,,"KALLANG BAHRU, 71 Kallang Bahru, #01-529/#02- 531, Singapore 330071",Central,103.870298,1.320927,7:00 AM - 10:00 PM,"62985369, 62980255",,
NTUC,,"LIMBANG, 533 Choa Chu Kang Street 51, #01-11, Limbang Shopping Centre, Singapore 680533",West,103.743152,1.391994,7:00 AM - 11:00 PM,68922977,,
NTUC,,"LOT 1 SHOPPERS' MALL, 21 Choa Chu Kang Ave 4, #B1-05, Lot 1 Shoppers' Mall, Singapore 689812",West,103.74501,1.385151,7:00 AM - 11:00 PM,"67665009, 67662784",,
NTUC,,"MARSILING MRT, 71 Woodlands Ave 3, #01-01, Marsiling Mrt Station, Singapore 739044",North,103.774247,1.432542,7:00 AM - 11:30 PM,"63631861, 63631862",,
NTUC,FairPrice Finest,"MARINE PARADE, 6 Marine Parade Central, Singapore 449411",East,103.907148,1.301348,8:00 AM - 11:00 PM,"63480826, 63454282",,
NTUC,,"NEW UPPER CHANGI, 57 New Upper Changi Road, #01-1334/1336/1338, Singapore 461057",East,103.941562,1.324664,12:00 AM - 11:59 PM,62418927,,
NTUC,,"SERANGOON BLK 152B, 152B Serangoon North Ave 1, #01-384, Singapore 552152",North-East,103.872957,1.369735,12:00 AM - 11:59 PM,"62860057, 62861967",,
NTUC,,"SHAW PLAZA, 360 Balestier Road, #B1-01, Shaw Plaza, Singapore 329783",Central,103.851151,1.325277,8:00 AM - 10:00 PM,"63520850, 63528736",,
NTUC,Click and Collect,"SUN PLAZA, 30 Sembawang Drive, #B1-01/02, Sun Plaza, Singapore 775713",North,103.819284,1.44817,8:00 AM - 10:00 PM,"65551180, 65551187",,
NTUC,,"TAMPINES BLK 107, 107 Tampines Street 11, #01- 353/355/357/359, Singapore 521107",East,103.948077,1.348375,12:00 AM - 11:59 PM,67819306,,
NTUC,,"TAMPINES BLK 475, 475 Tampines Street 44, #01- 145, Singapore 520475",East,103.953137,1.360448,12:00 AM - 11:59 PM,"67875228, 67875249",,
NTUC,,"TAMPINES MALL, 4 Tampines Central 5, #B1-12, Tampines Mall, Singapore 529510",East,103.944698,1.352611,8:00 AM - 11:00 PM,"67861953, 67865234",,
NTUC,,"TELOK BLANGAH, 78A Telok Blangah Street 32, #01-01/02, Singapore 100078",Central,103.809176,1.273148,12:00 AM - 11:59 PM,62704201,,
NTUC,,"TEBAN GARDEN, 37 Teban Garden Road, #01- 304/305/306, Singapore 600037",West,103.742938,1.320474,12:00 AM - 11:59 PM,65617073,,
NTUC,,"TANJONG PAGAR, 5 Tanjong Pagar Plaza, #01-01, Singapore 81005",Central,103.842421,1.276394,12:00 AM - 11:59 PM,"62245703, 62245761",,
NTUC,FairPrice Finest,"THOMSON PLAZA, 301 Upper Thomson, #03-37/38, Thomson Plaza, Singapore 574408",Central,103.831025,1.354649,8:00 AM - 10:30 PM,"64547738, 64545349",,
NTUC,,"TAMAN JURONG, 399 Yung Sheng Road, #01-35, Taman Jurong Shopping Centre, Singapore 610399",West,103.720188,1.334341,12:00 AM - 11:59 PM,"62664822, 62663044",,
NTUC,,"TOA PAYOH A, 192 Toa Payoh Lorong 4, #01- 670/672, Singapore 310192",Central,103.85065,1.331722,8:00 AM - 11:00 PM,"62508019, 62534178",,
NTUC,,"WOODLANDS BLK 888, 888 Woodlands Drive 50, #01-757, Singapore 730888",North,103.795476,1.438552,12:00 AM - 11:59 PM,"63687756, 63681760",,
NTUC,,"WHITESANDS, 1 Pasir Ris Central Street 3, #B1-10, Whitesands, Singapore 518457",East,103.949405,1.372472,8:00 AM - 11:00 PM,"65850536, 65850540",,
NTUC,,"YUNG KUANG, 63/66 Yung Kuang Road, #01- 119/#02-119, Singapore 610063",West,103.722517,1.331994,8:00 AM - 10:00 PM,"62655800, 62655183",,
NTUC,,"YISHUN MRT, 301 Yishun Ave 2, #01-02, Yishun Mrt Station, Singapore 769093",North,103.835188,1.429369,7:00 AM - 11:30 PM,"67554233, 67557705",,
NTUC,FairPrice Xtra,"HYPER HOUGANG ONE, 1 Hougang Street 91, #02- 01, Hougang 1, Singapore 538692",North-East,103.879627,1.375286,7:00 AM - 11:00 PM,"68810013, 68810134",,
NTUC,,"RIVERVALE PLAZA, 118 Rivervale Drive, #01-08, Rivervale Plaza, Singapore 540118",North-East,103.902941,1.385535,12:00 AM - 11:59 PM,"68810551, 68810552",,
NTUC,,"RIVERVALE MALL, 11 Rivervale Cresent, #03-01, Rivervale Mall, Singapore 545082",North-East,103.904656,1.392093,8:00 AM - 10:00 PM,"63844711, 63844709",,
NTUC,,"YISHUN RING BLK 414, 414 Yishun Ring Road, #01-1853, Singapore 760414",North,103.846693,1.424445,12:00 AM - 11:59 PM,62570679,,
NTUC,,"TOA PAYOH HDB HUB, 500 Toa Payoh Lorong 6, #B1-32/#01-33, Singapore 310500",Central,103.847057,1.333015,7:00 AM - 11:59 PM,"62506009, 62505270",,
NTUC,,"KHATIB, 849 Yishun Ring Road, #01-3701/3703, Singapore 760849",North,103.835243,1.416939,12:00 AM - 11:59 PM,"67550955, 67550976",,
NTUC,,"ORCHARD GRAND COURT, 131 Killiney Road, #01-01/02/03, Orchard Grand Court, Singapore 239571",Central,103.838372,1.297315,12:00 AM - 11:59 PM,67344450,,
NTUC,FairPrice Finest,"JUNCTION 8, 9 Bishan Place, #B1-01, Junction 8 Shopping Centre, Singapore 579837",Central,103.848515,1.35063,8:00 AM - 11:00 PM,"62590461, 62594437",,
NTUC,FairPrice Finest,"WOODGROVE, 30 Woodlands Ave 1, #01-11, The Woodgrove, Singapore 739065",North,103.781193,1.429068,12:00 AM - 11:59 PM,"68931203, 68939576",,
NTUC,,"BUKIT BATOK EAST, 280 Bukit Batok East Ave 3, #01-315, Singapore 650280",West,103.757112,1.347599,12:00 AM - 11:59 PM,65610042,,
NTUC,,"SENJA GRAND, 628 Senja Road, #01-01, Senja Grand, Singapore 670628",West,103.760094,1.385129,12:00 AM - 11:59 PM,67631076,,
NTUC,,"DAWSON, 57 Dawson Road, #01-07, Dawson Place, Singapore 142057",Central,103.811032,1.29271,12:00 AM - 11:59 PM,"64764471, 64792427",,
NTUC,FairPrice Finest,"TIONG BAHRU PLAZA, 302 Tiong Bahru Road, #B1-01/02, Tiong Bahru Plaza, Singapore 168732",Central,103.826746,1.286674,8:00 AM - 11:00 PM,"62700913, 62700119",,
NTUC,,"DEPOT, 108 Depot Road, #01-01, Depot Heights Shopping Centre, Singapore 100108",Central,103.810083,1.281198,8:00 AM - 10:00 PM,62729697,,
NTUC,,"PUNGGOL PLAZA, 168 Punggol Field Road, #03- 01/02, Punggol Plaza, Singapore 820168",North-East,103.912912,1.394211,7:00 AM - 10:00 PM,"63129091, 63129880",,
NTUC,,"WOODLANDS CIVIC CTR, 900 South Woodlands Drive, #B1-01, Woodlands Civic Centre, Singapore 730900",North,103.774149,1.432504,7:00 AM - 11:00 PM,"62192812, 62192074",,
NTUC,,"TAMPINES BLK 138, 138 Tampines Street 11, #01- 136, Singapore 521138",East,103.945654,1.345493,12:00 AM - 11:59 PM,67810648,,
NTUC,,"CHAI CHEE, 29B Chai Chee Ave, #01-62, Singapore 462029",East,103.923793,1.324271,12:00 AM - 11:59 PM,64432578,,
NTUC,,"SERANGOON CENTRAL, 253 Serangoon Central Drive, #01-241, Singapore 550253",North-East,103.87077,1.354122,12:00 AM - 11:59 PM,62891647,,
NTUC,,"SIGLAP NEW MARKET, 934 East Coast Road, Siglap New Market, Singapore 459125",East,103.925253,1.312397,12:00 AM - 11:59 PM,64484285,,
NTUC,,"YISHUN BLK 239, 239 Yishun Ring Road, #01-1150, Singapore 760239",North,103.839943,1.433462,7:00 AM - 10:00 PM,67551369,,
NTUC,,"PASIR RIS WEST PLAZA, 734 Pasir Ris Street 72, #01-37, Pasir Ris West Plaza, Singapore 510734",East,103.936293,1.379995,12:00 AM - 11:59 PM,"65812886, 65813845",,
NTUC,FairPrice Xtra,"HYPER ANG MO KIO , 53 Ang Mo Kio Ave 3, #B2- 26, Ang Mo Kio Hub, Singapore 569933",North-East,103.848647,1.369623,7:00 AM - 11:00 PM,"64532521, 64531741",,
NTUC,,"SQUARE 2, 10 Sinaran Drive, #04-46/47/48/49, Square 2, Singapore 307506",,103.844208,1.320609,9:00 AM - 10:00 PM,"63976432, 63976428",,
NTUC,,"TAMPINES CC, 866A Tampines Street 83, #01-01, Singapore 521866",East,103.934408,1.355323,7:00 AM - 11:00 PM,"67852162, 65876836",,
NTUC,,"CAMBRIDGE BLK 43, 43 Cambridge Road, #01-15, Singapore 210043",Central,103.849386,1.315477,7:00 AM - 11:00 PM,62961552,,
NTUC,,"DOWNTOWN EAST, 1 Pasir Ris Close, #02-127, E Hub Downtown East, Singapore 519599",East,103.955191,1.376154,8:00 AM - 10:00 PM,"65815176, 65812915",,
NTUC,,"STIRLING ROAD, 170 Stirling Road, #01-1147, Singapore 140170",Central,103.802755,1.290864,9:00 AM - 10:00 PM,64724611,,
NTUC,,"JALAN TIGA, 41 Jalan Tiga, #01-05, Singapore 390041",Central,103.884814,1.307587,12:00 AM - 11:59 PM,62425707,,
NTUC,,"SEMBAWANG WAY BLK 355 , 355 Sembawang Way, #01-01, Singapore 750355",North,103.81862,1.449617,12:00 AM - 11:59 PM,"64843176, 64843179",,
NTUC,FairPrice Finest,"CHANGI AIRPORT T3, 65 Changi Airport Terminal 3, Airport Boulevard, Basement 2 North, #B2-10, Singapore 819663",East,103.986632,1.356407,7:00 AM - 11:00 PM,"62426653, 62422048",,
NTUC,,"DOVER, 28 Dover Cresent, #01-83, Singapore 130028",Central,103.781403,1.305007,7:30 AM - 11:00 PM,67736269,,
NTUC,,"UPPER BOON KENG, 5 Upper Boon Keng Road, #01-05, Singapore 380005",Central,103.872549,1.312591,7:00 AM - 11:00 PM,67422116,,
NTUC,,"COMPASSVALE LINK, 277C Compassvale Link, #01-13, Singapore 544277",North-East,103.893961,1.382318,12:00 AM - 11:59 PM,"64818505, 64818014",,
NTUC,,"LOR LIMAU, 80 Lorong Limau Road, #01-191, Singapore 320080",,103.855841,1.323892,12:00 AM - 11:59 PM,"62562253, 62569602",,
NTUC,Click and Collect,"HYPER JURONG POINT, 63 Jurong West Central 3, #03-01, Jurong Point, Singapore 648331",West,103.705189,1.339619,12:00 AM - 11:59 PM,"67901477, 67901765",,
NTUC,,"BUONA VISTA CC, 36 Holland Drive, #01-03/04/05, Singapore 270036",Central,103.792671,1.309124,12:00 AM - 11:59 PM,67736387,,
NTUC,,"YEW TEE POINT, 21 Choa Chu Kang North 6, #B1- 01, Yew Tee Point, Singapore 689578",West,103.746462,1.397335,7:00 AM - 11:00 PM,"67639011, 67636891",,
NTUC,,"JOO CHIAT COMPLEX, 2 Joo Chiat Road, #01/02- 1139, Joo Chiat Complex, Singapore 420002",East,103.898858,1.315428,7:00 AM - 11:00 PM,"67456977, 67452682",,
NTUC,,"CITY SQUARE MALL, 180 Kitchener Road, #B1- 09/10, Singapore 208539",Central,103.856573,1.311547,8:00 AM - 10:00 PM,"65096260, 65096261",,
NTUC,,"KANG KAR MALL , 100 Hougang Ave 10, #01-01 & #02-01, Kang Kar Mall, Singapore 538767",North-East,103.898841,1.371611,12:00 AM - 11:59 PM,"63858040, 63859054",,
NTUC,FairPrice Finest,"CENTURY SQUARE, 2 Tampines Central 5, #B1/07/08/17, Century Square, Singapore 529509",East,103.944069,1.352083,9:00 AM - 10:00 PM,"65870167, 65870163",,
NTUC,,"CANBERRA ROAD BLK 511, 511 Canberra Road, #02-03, Singapore 750511",,103.819666,1.453875,12:00 AM - 11:59 PM,"65562133, 65564597",,
NTUC,,"EUNOS CRESCENT, 5 Eunos Crescent, #01-2619/21, Singapore 400005",central,103.903569,1.321159,8:00 AM - 11:00 PM,67469722,,
NTUC,,"CIRCUIT BLK 77, 77 Circuit Road, #01-464/466, Singapore 370077",,103.885289,1.328327,8:00 AM - 11:00 PM,67497047,,
NTUC,,"ORCHID COUNTRY CLUB, 1 Orchid Club Rd, #01- 34 Level 1, Orchid Country Club, Singapore 769162",,103.844766,1.411317,9:00 AM - 10:00 PM,"64823678, 64823624",,
NTUC,FairPrice Xtra,"HYPER NEX, 23 Serangoon Central, #03-42, nex Mall, Singapore 556083",North-East,103.871962,1.350703,12:00 AM - 11:59 PM,"66344948, 66344947",,
NTUC,FairPrice Finest,"CLEMENTI MALL, 3155 Commonwealth Avenue West, #B1-12/13/14, The Clementi Mall, Singapore 129588",West,103.764127,1.315159,8:00 AM - 11:00 PM,"66594437, 66594438",,
NTUC,FairPrice Finest,"MY VILLAGE, 1 Maju Avenue, # B1-11 to 14, # B1- K09, Serangoon Garden Village, Singapore 556679",North-East,103.865406,1.365039,12:00 AM - 11:59 PM,"66342038, 66342037",,
NTUC,,"ANG MO KIO BLK 215, 215 Ang Mo Kio Ave 1, #01- 877, Singapore 560215",North-East,103.84161,1.366489,12:00 AM - 11:59 PM,64588090,,
NTUC,,"PUNGGOL DRIVE BLOCK 612, 612 Punggol Drive, #01-06, Singapore 820612",North-East,103.908612,1.404916,7:00 AM - 11:00 PM,66365760,,
NTUC,,"KIM TIAN, 18/20 Kim Tian Road, Singapore 169252",,103.829388,1.284821,7:00 AM - 10:00 PM,"62754868, 62754631",,
NTUC,,"BISHAN NORTH BLK 279, 279 Bishan Street 24, #01-62/64, Singapore 570279",Central,103.843808,1.35721,12:00 AM - 11:59 PM,64582558,,
NTUC,,"LENGKONG TIGA, 110 Lengkong Tiga, #01-233/235, Singapore 410110",,103.910843,1.32366,12:00 AM - 11:59 PM,67487794,,
NTUC,,"GEYLANG LORONG 38, 612/620 Geylang Lorong 38, Singapore 389551",Central,103.888666,1.314241,12:00 AM - 11:59 PM,68416016,,
NTUC,,"ANG MO KIO BLK 712, 712 Ang Mo Kio Ave 6, #01- 4056, Singapore 560712",North-East,103.847129,1.371417,12:00 AM - 11:59 PM,"64564147, 64564805",,
NTUC,FairPrice Finest,"SCOTTS SQUARE, 6 Scotts Road, #B1-03 to 07 and #B1-10, Scotts Square, Singapore 228209",,103.832837,1.306076,8:00 AM - 11:00 PM,"66360290, 66360291",,
NTUC,,"PSA BRANCH, 460 Alexandra Road, #01-09 & #01- 16, Singapore 119963",Central,103.80135,1.273727,8:00 AM - 10:00 PM,"62769903, 62707303",,
NTUC,FairPrice Xtra,"HYPER CHANGI, 8 Changi Business Park Ave 1, #01- 51 & #02-51, Singapore 486018",East,103.963539,1.335073,8:00 AM - 10:30 PM,"66047548, 66047546",,
NTUC,FairPrice Finest,"ZHONGSHAN PARK, 20 Ah Hood Road, #02-01, Zhong Shan Park, Singapore 329984",,103.846506,1.32704,8:00 AM - 11:00 PM,"67340536, 67340260",,
NTUC,,"CHINATOWN POINT, 133 New Bridge Road, #B1- 01, Chinatown Point, Singapore 059413",Central,103.845348,1.285692,8:00 AM - 10:30 PM,"67020381, 67020382",,
NTUC,FairPrice Finest,"AMARA, 100 Tras Street, #B1-01, 100Am, Singapore 079027",,103.843184,1.276173,8:00 AM - 10:00 PM,"66047457, 66047405",,
NTUC,,"WOODLANDS AVE 1, 570B Woodlands Ave 1, #01- 06, Singapore 732570",North,103.790783,1.431138,7:00 AM - 11:00 PM,63392996,,
NTUC,FairPrice Finest,"VALLEY POINT, 491 River Valley Road, #01-14, Valley Point, Singapore 248371",Central,103.827441,1.293144,8:00 AM - 10:00 PM,"67339358, 67339861",,
NTUC,,"WEST COAST, 502 West Coast Drive, #01-41, Singapore 120502",West,103.759264,1.311912,7:00 AM - 11:00 PM,67766620,,
NTUC,,"ITE ANG MO KIO, 2 Blk A Ang Mo Kio Drive, #01- 12, Singapore 567720",North-East,103.856399,1.377636,8:00 AM - 10:00 PM,68532308,,
NTUC,FairPrice Xtra,"HYPER JEM, 50 Jurong Gateway Road, #B1 -21/22 & B3 -01, Singapore 608549",West,103.74303,1.332903,7:00 AM - 11:00 PM,"63391729, 63390385",,
NTUC,Click and Collect,"CHEERS NUS, No. 2 College Avenue West #01-05, #01-05, Singapore 138607",,,,7:30 AM - 9:00 PM,66944957,,
NTUC,Click and Collect,"CHEERS UPPER THOMSON, 594 Upper Thomson Road, Singapore 574420",Central,103.828942,1.372928,12:00 AM - 11:59 PM,64539336,,
NTUC,,"PUNGGOL WALK, 308C Punggol Walk, #01-352, Singapore 823308",North-East,103.898952,1.408075,8:00 AM - 10:00 PM,65381476,,
NTUC,,"REDHILL, 20 Lengkok Bahru, #01-13, Singapore 159053",,,,8:00 AM - 9:00 PM,"64720048, 64720147",,
NTUC,Click and Collect,"CHEERS NEPTUNE COURT,  #01- 33, Neptune Court, Singapore 449034",,103.921789,1.306448,7:00 AM - 10:50 PM,62419105,,
NTUC,,"JALAN BUKIT MERAH, 1 Jalan Bukit Merah, #01- 4500, Singapore 150001",Central,103.808749,1.286507,7:00 AM - 11:00 PM,62530146,,
NTUC,Click and Collect,"WOODLANDS CIVIC CTR, 900 South Woodlands Drive, #B1-01, Woodlands Civic Centre, Singapore 730900",North,103.786769,1.435047,7:00 AM - 11:00 PM,"62192812, 62192074",,
NTUC,,"BUKIT BATOK HT, 2 Bukit Batok West, #01-10, HomeTeamNS Clubhse, Singapore 659003",West,103.749864,1.365527,7:00 AM - 10:00 PM,65691789,,
NTUC,Click and Collect,"WHITESANDS, 1 Pasir Ris Central Street 3, #B1-10, Whitesands, Singapore 518457",East,103.949452,1.372461,8:00 AM - 11:00 PM,"65850536, 65850540",,
NTUC,Click and Collect,"CHANGI AIRPORT T2, Click&Collect: No Chilled & Frozen, #B16-029, Terminal 2, Basement Level South, Singapore 819643",East,103.989337,1.355012,7:00 AM - 11:00 PM,"65431239, 65431147",,
NTUC,,"MACPHERSON MALL, 401 Macpherson Road, #02- 22, Macpherson Mall, Singapore 368125",Central,103.879125,1.331731,8:00 AM - 10:00 PM,63521728,,
NTUC,FairPrice Finest,"JCUBE, 2 Jurong East Central 1, #B1-12 , Jcube, Singapore 609731",West,103.707119,1.339721,9:00 AM - 10:00 PM,"62624180, 62624183",,
NTUC,FairPrice Finest,"YEW TEE MRT , 61 Choa Chu Kang Drive, #01-01 , Yew Tee MRT Station, Singapore 689715",West,103.747452,1.397045,12:00 AM - 11:59 PM,"67693819, 67693956",,
NTUC,,"Henderson Crescent, 106 Henderson Crescent, #01-47, Singapore 150106",,,,8:00 AM - 10:00 PM,63583036,,
NTUC,FairPrice Finest,"CHANGI CITY POINT, 5 Changi Business Park Central 1, #B1-09/10/11 , Singapore 486038",East,103.963235,1.335117,9:00 AM - 10:00 PM,"64438547, 64431472",,
NTUC,,"DOWNTOWN EAST, 1 Pasir Ris Close, #02-127, E Hub Downtown East, Singapore 519599",East,103.955222,1.376189,8:00 AM - 10:00 PM,65815176,,
NTUC,,"OUR TAMPINES HUB, 51 Tampines Ave 4, #B1-01, Festive Mall @ Our Tampines Hub, Singapore 529684",East,103.939799,1.35374,12:00 AM - 11:59 PM,"63866751, 63866762",,
NTUC,,"JALAN KAYU, 447A Jalan Kayu, #01-01/02, Singapore 791447",,103.872496,1.392308,12:00 AM - 11:59 PM,64443216,,
NTUC,FairPrice Finest,"KATONG VILLAGE, 30 East Coast Road, #01- 06/07/08/09, Katong Village Hotel, Singapore 428751",East,103.902876,1.304024,8:00 AM - 11:00 PM,"63421242, 63421371",,
NTUC,,"KITCHENER COMPLEX, 808 French Road, #01-01, Singapore 200808",Central,103.86199,1.308916,7:00 AM - 11:00 PM,62949535,,
NTUC,FairPrice Finest,"BEDOK MALL, 311 New Upper Changi Road, #B2- 60, Bedok Mall, Singapore 467360",East,103.928729,1.324419,8:00 AM - 11:00 PM,"68449846, 68449845",,
NTUC,,"NUH MEDICAL CENTRE, 1 Lower Kent Ridge Road, #02-16, NUH Medical Centre, Singapore 119082",Central,103.784468,1.293551,9:00 AM - 10:00 PM,66844052,,
NTUC,Click and Collect,"FAIRPRICE EXPRESS MACPHERSON, 110/114 MacPherson Road, Singapore 348501",Central,103.871942,1.328632,12:00 AM - 11:59 PM,68464381,,
NTUC,Click and Collect,"HYPER ANG MO KIO, 53 Ang Mo Kio Ave 3, #B2- 26, Ang Mo Kio Hub, Singapore 569933",North-East,103.848669,1.36958,7:00 AM - 11:00 PM,"64532521, 64531741",,
NTUC,Click and Collect,"HYPER CHANGI, 8 Changi Business Park Ave 1, #01- 51 #02-51, Singapore 486018",East,103.963496,1.335062,8:00 AM - 10:30 PM,"66047548, 66047546",,
NTUC,,"POTONG PASIR COMMUNITY CLUB, 6 Potong Pasir Ave 2, #01-01, Singapore 358361",Central,103.867259,1.332669,7:00 AM - 11:00 PM,62858830,,
NTUC,Click and Collect,"HYPER JEM, 50 Jurong Gateway Road, #B1 -21/22 #B3 -01, Singapore 608549",West,103.743051,1.332924,7:00 AM - 11:00 PM,"63391729, 63390385",,
NTUC,Click and Collect,"BUKIT TIMAH PLAZA, 1 Jalan Anak Bukit, #B1-01 #B2-01, Bukit Timah Plaza, Singapore 588996",Central,103.778387,1.338206,12:00 AM - 11:59 PM,"64688415, 64684923",,
NTUC,Click and Collect,"HOUGANG, 202 Hougang Street 21, #01-00, Singapore 530202",North-East,103.884083,1.357417,12:00 AM - 11:59 PM,"62870702, 62870703",,
NTUC,Click and Collect,"ZHONGSHAN PARK, 20 Ah Hood Road, #02-01, Zhong Shan Park, Singapore 329984",,103.846506,1.32705,8:00 AM - 11:00 PM,"67340536, 67340260",,
NTUC,Click and Collect,"VALLEY POINT, 491 River Valley Road, #01-14, Valley Point, Singapore 248371",Central,103.827452,1.293144,8:00 AM - 10:00 PM,"67339358, 67339861",,
NTUC,FairPrice Finest,"SELETAR MALL, 33 Sengkang W Ave, #B2-24, Seletar Mall, Singapore 797653",North-East,103.876022,1.391209,12:00 AM - 11:59 PM,"63416177, 63416178",,
NTUC,Click and Collect,"CENTURY SQUARE, 2 Tampines Central 5, #B1/07/08/17, Century Square, Singapore 529509",East,103.944048,1.352061,9:00 AM - 10:00 PM,"65870167, 65870163",,
NTUC,Click and Collect,"AMARA, 100 Tras Street, #B1-01, 100Am, Singapore 079027",,103.843772,1.275237,8:00 AM - 10:00 PM,"66047457, 66047405",,
NTUC,Click and Collect,"THOMSON PLAZA, 301 Upper Thomson, #03-37/38, Thomson Plaza, Singapore 574408",Central,103.831025,1.354703,8:00 AM - 10:30 PM,"64547738, 64545349",,
NTUC,Click and Collect,"KANG KAR MALL , 100 Hougang Ave 10, #01-01 #02-01, Kang Kar Mall, Singapore 538767",North-East,103.894262,1.371715,12:00 AM - 11:59 PM,"63858040, 63859054",,
NTUC,Click and Collect,"BEDOK NORTH A, 212 Bedok North Street 1, #01- 147, Singapore 460212",East,103.93164,1.325856,12:00 AM - 11:59 PM,"64438038, 64438538",,
NTUC,Click and Collect,"TOA PAYOH A, 192 Toa Payoh Lorong 4, #01- 670/672, Singapore 310192",Central,103.850654,1.331721,8:00 AM - 11:00 PM,"62508019, 62534178",,
NTUC,Click and Collect,"FAIRPRICE EXPRESS EAST COAST , 239/255 East Coast Road, Singapore 428932",East,103.907973,1.308269,12:00 AM - 11:59 PM,64403538,,
NTUC,Click and Collect,"FAIRPRICE EXPRESS CHOA CHU KANG, 31 Choa Chu Kang Way, Singapore 688786",West,103.750136,1.37759,12:00 AM - 11:59 PM,67636030,,
NTUC,,"WAREHOUSE CLUB, 1 Joon Koon Circle, Level 2 and 3, Singapore 629117",,103.678856,1.327349,10:00 AM - 9:00 PM,"67104584, 67104594",,
NTUC,Click and Collect,"FAIRPRICE EXPRESS TOA PAYOH 2, 399 Toa Payoh Lorong 2, Singapore 319640",Central,103.846389,1.336315,12:00 AM - 11:59 PM,62513075,,
NTUC,Click and Collect,"CHEERS PEACE CENTRE, 1 Sophia Road, #01-18, Peace Centre, Singapore 228149",,103.849692,1.300986,12:00 AM - 11:59 PM,63345819,,
NTUC,FairPrice Xtra,"HYPER JURONG POINT, 63 Jurong West Central 3, #03-01, Jurong Point, Singapore 648331",West,103.705395,1.339542,12:00 AM - 11:59 PM,"67901477, 67901765",,
NTUC,,"SUN PLAZA, 30 Sembawang Drive, #B1-01/02, Sun Plaza, Singapore 775713",North,103.819445,1.448159,8:00 AM - 10:00 PM,"65551180, 65551187",,
NTUC,Click and Collect,"DAWSON, 57 Dawson Road, #01-07, Dawson Place, Singapore 142057",Central,103.81103,1.29271,12:00 AM - 11:59 PM,"64764471, 64792427",,
NTUC,,"BUKIT PANJANG MKT, 2 Bukit Panjang Ring Road, #02-06, Singapore 679947",West,,,7:00 AM - 10:00 PM,62195987,,
NTUC,FairPrice Xtra,"WATERWAY POINT, 83 Punggol Central, #B2-32, Waterway Point, Singapore 828761",North-East,103.902301,1.406229,12:00 AM - 11:59 PM,"63858959, 63858961",,
NTUC,Click and Collect,"HYPER NEX, 23 Serangoon Central, #03-42, nex Mall, Singapore 556083",North-East,103.871951,1.350692,12:00 AM - 11:59 PM,"66344948, 66344947",,
NTUC,Click and Collect,"TOA PAYOH HDB HUB, 500 Toa Payoh Lorong 6, #B1-32/#01-33, Singapore 310500",Central,103.847064,1.333004,7:00 AM - 11:59 PM,"62506009, 62505270",,
NTUC,Click and Collect,"JOO CHIAT COMPLEX, 2 Joo Chiat Road, #01/02 - 1139, Joo Chiat Complex, Singapore 420002",East,103.898869,1.315428,7:00 AM - 11:00 PM,"67456977, 67452682",,
NTUC,Click and Collect,"CHANGI AIRPORT T3, Click&Collect: No Chilled & Frozen, #B2-10, Terminal 3, Basement2 North, Singapore 819663",East,103.986561,1.356344,7:00 AM - 11:00 PM,"62426653, 62422048",,
NTUC,,"Ang Mo Kio Blk 574, Blk 574 Ang Mo Kio Ave 10, #01-1847 , Singapore 560574",North-East,103.856261,1.371273,8:00 AM - 10:00 PM,"64524119, 64520827",,
NTUC,Click and Collect,"FAIRPRICE EXPRESS TAMPINES AVE 7, 9 Tampines Ave 7, Singapore 529619",East,103.959019,1.35759,12:00 AM - 11:59 PM,67841294,,
NTUC,FairPrice Xtra,"HYPER SPORTS HUB, #01-29, 1 Stadium Place, Singapore 397628",Central,103.872659,1.304428,8:00 AM - 10:30 PM,"67027281, 67027282",,
NTUC,Click and Collect,"REDHILL, 20 Lengkok Bahru, #01-13, Singapore 159053",,103.814835,1.287312,8:00 AM - 9:00 PM,"64720048, 64720147",,
NTUC,,"SERANGOON VIEW, 476 Upp Serangoon View, #02- 18, Singapore 530476",North-East,,,7:00 AM - 11:00 PM,"67026100, 67024800",,
NTUC,Click and Collect,"BUKIT MERAH, 166 Bukit Merah Central, #02-3531, Singapore 150166",Central,103.817552,1.282835,7:00 AM - 10:00 PM,"62734325, 62733163",,
NTUC,Click and Collect,"HYPER HOUGANG ONE, 1 Hougang Street 91, #02- 01, Hougang 1, Singapore 538692",North-East,103.879625,1.375286,7:00 AM - 11:00 PM,"68810013, 68810134",,
NTUC,Click and Collect,"BEDOK MALL, 311 New Upper Changi Road, #B2- 60, Bedok Mall, Singapore 467360",East,103.928751,1.324387,8:00 AM - 11:00 PM,"68449846, 68449845",,
NTUC,,"JURONG EAST BLK 249, 249 Jurong East St 24, #01- 106 , Singapore 600249",West,,,8:00 AM - 10:00 PM,65600107,,
NTUC,,"FAIRPRICE EXPRESS UPPER CHANGI RD, 955 Upper Changi Road North, Singapore 507662",East,103.969762,1.359456,12:00 AM - 11:59 PM,62140937,,
NTUC,,"BISHAN BLK 510, 510 Bishan Street 13, #01-520, Singapore 570510",Central,103.849648,1.348784,12:00 AM - 11:59 PM,63536036,,
NTUC,,"COMPASSVALE LINK, 277C Compassvale Link, #01-13, Singapore 544277",North-East,103.893961,1.38235,12:00 AM - 11:59 PM,64818505,,
NTUC,,"Blk 150 Silat Ave, Blk 150 Silat Ave, #01-44, Singapore 160150",,,,8:00 AM - 10:00 PM,"62653188, 62524418",,
NTUC,,"BUKIT BATOK WEST, West Ave 8, #01-256/258, 166 Bukit Batok, Singapore 650166",West,103.742956,1.347306,12:00 AM - 11:59 PM,65646717,,
NTUC,,"JURONG EAST 345, Jurong East St 31, #01-29, Blk 345, Singapore 600345",West,103.731122,1.345535,12:00 AM - 11:59 PM,65651513,,
NTUC,,"SENGKANG EAST AVE, SengKang East Ave, #01- 06, Blk 279, Singapore 540279",North-East,103.893273,1.38651,12:00 AM - 11:59 PM,63845829,,
Sheng Shiong,Self-Payment Kiosk,Blk 547 Segar Rd_ #01-06_ Singapore 670547,,103.76981,1.387917,24 Hours,62500664,,
Sheng Shiong,,Blk 52 Chin Swee Rd #01-25 Singapore 160052,,103.841684,1.287163,24 Hours,65350401,,
Sheng Shiong,,Blk 209 New Upper Changi Rd #01-631/#02-631 Singapore 460209,East,103.931035,1.324574,24 Hours,62422824,,
Sheng Shiong,,Blk 18 Teck Whye Lane #01-95 Singapore 680018,West,103.753983,1.378334,24 Hours,68750103,,
Sheng Shiong,,18B Circuit Road #01-260 Singapore 372018,,103.888219,1.329158,24 Hours,67472610,,
Sheng Shiong,,Blk 115 Bedok North Road #01-319 Singapore 460115,East,103.936376,1.331304,24 Hours,64499073,,
Sheng Shiong,Self-Payment Kiosk,200 Woodlands Industrial Park E7 Singapore 757177,North,103.796945,1.450952,7.00am - 12.00mn,63656162,,
Sheng Shiong,Self-Payment Kiosk,85 Dawson Road #01-01 Singapore 141085,Central,103.796945,1.450952,7.00am - 11.00pm,64750386,,
Sheng Shiong,,Blk 539A Bedok North St 3 #01-477 Singapore 461539,East,103.810041,1.29542,24 Hours,62421442,,
Sheng Shiong,,Blk 301 Woodlands St 31 #01-217 Singapore 730301,North,103.773507,1.431703,24 Hours,63623061,,
Sheng Shiong,,Blk 301 Geylang Lorong 15 #01-02 BCH Building Singapore 389344,Central,103.878628,1.312633,24 Hours,68461766,,
Sheng Shiong,,Blk 739A Bedok Reservoir Rd #01-01 Singapore 471739,East,103.92349,1.338136,24 Hours,64478669,,
Sheng Shiong,Self-Payment Kiosk,1 Jalan Berseh #B1-01 New World Centre Singapore 209037,,103.857152,1.307717,24 Hours,63657662,,
Sheng Shiong,,Blk 623 Elias Road #B1-01 Elias Mall (Stalls #14-16) Singapore 510623,,103.942383,1.377794,24 Hours,65851027,,
Sheng Shiong,,Blk 845 Yishun St 81 #01-186 Singapore 760845,North,103.834873,1.416062,24 Hours,67557383,,
Sheng Shiong,,Blk 108 McNair Rd #01-295 Singapore 321108,,103.85968,1.321633,24 Hours,62993391,,
Sheng Shiong,,Blk 925 Yishun Central 1 #01-211 Singapore 760925,North,103.837131,1.42746,7.00am - 11.00pm,67555633,,
Sheng Shiong,Self-Payment Kiosk,2 Serangoon Rd #B1-01/33 / #B2-01/05 The Verge Singapore 218227,North-East,103.851399,1.304991,7.00am - 10.00pm,62962833,,
Sheng Shiong,,Blk 527D Pasir Ris Street 51 #01-01 Singapore 514527,East,103.947939,1.36958,24 Hours,65854797,,
Sheng Shiong,,18 Yishun Avenue 9 #02-06 / #02-10 Singapore 768897,North,103.841697,1.433033,24 Hours,62529026,,
Sheng Shiong,,Blk 11 Upper Boon Keng Road #01-901 Singapore 380011,Central,103.870478,1.3141,24 Hours,67472780,,
Sheng Shiong,,506 Tampines Central 1 #02-361 Singapore 520506,East,103.945997,1.355995,7.00am - 11.00pm,66361713,,
Giant,Giant Express,Blk 468B Admiralty Drive #01-29 Singapore 752468,North,103.814307,1.449931,24 Hours,,,
Giant,Giant Express,Blk 70 Woodlands Avenue 7 #01-05 Singapore 738344,North,103.80096,1.440678,24 Hours,,,
Giant,Giant Express,Blk 525 Ang Mo Kio Avenue 10 #01-2401/2403/2405 Singapore 560525,North-East,103.85382,1.372555,24 Hours,,,
Giant,Giant Express,Blk 256 Bangkit Road #01-69 Singapore 670256,,103.772859,1.379094,24 Hours,,,
Giant,Giant Express,Blk 509 Bedok North St 3 #01-121 Singapore 460509,East,103.93132,1.333569,24 Hours,,,
Giant,Giant Express,Blk 631 Bedok Reservoir Road #01-954 Singapore 470631,East,103.914187,1.333555,24 Hours,,,
Giant,Giant Express,Blk 284 Bukit Batok East Avenue 3 #01-251 Singapore 650284,West,103.757144,1.34685,24 Hours,,,
Giant,Giant Express,Blk 266 Compassvale Bow #01-02 Singapore 540266,North-East,103.897061,1.381907,24 Hours,,,
Giant,Giant Express,Blk 671 Edgefield Plains #02-01 Singapore 820671,,103.912001,1.405518,24 Hours,,,
Giant,Giant Express,Blk 445 Fajar Road #01-536 Singapore 670445,,103.770563,1.383799,24 Hours,,,
Giant,Giant Express,Blk 21 Ghim Moh Road #01-177 Singapore 270021,,103.788517,1.310616,24 Hours,,,
Giant,Giant Express,683 Hougang Avenue 8 #01-903/905/907 Singapore 530683,North-East,103.886096,1.373542,24 Hours,,,
Giant,Giant Express,Blk 26 Jalan Membina #01-07/08/09 Singapore 161026,,103.826001,1.283105,24 Hours,,,
Giant,Giant Express,291 Joo Chiat Road #01-01 Singapore 427543,East,103.902225,1.309705,24 Hours,,,
Giant,Giant Express,Blk 492 Jurong West St 41 #01-24/26/28 Singapore 640492,West,103.725,1.350009,24 Hours,65604938,,
Giant,Giant Express,2 Jalan Lokam #01-37 Singapore 537846,,103.882748,1.345483,7am - 10pm,,,
Giant,Giant Express,Blk 56 Marine Terrace #01-259/261 Singapore 440056,,103.915394,1.305623,24 Hours,,,
Giant,Giant Express,"35 Students Walk, NTU Canteen 2 Singapore 639548",,103.685648,1.348018,8am - 12am,,,
Giant,Giant Express,Blk 776 Pasir Ris St 71 #01-412 Singapore 510776,East,103.936938,1.374886,24 Hours,,,
Giant,Giant Express,Blk 622D Punggol Central #01-06 Singapore 824622,North-East,103.910424,1.400593,24 Hours,,,
Giant,Giant Express,Blk 86 Redhill Close #01-610 Singapore 150086,,103.818498,1.286971,24 Hours,,,
Giant,Giant Express,Blk 406A Sembawang Drive #01-02 Singapore 751406,North,103.817649,1.452201,24 Hours,,,
Giant,Giant Express,Blk 266 Serangoon Central Drive #01-255 Singapore 550266,North-East,103.871642,1.353226,24 Hours,,,
Giant,Giant Express,Blk 829 Tampines St 81 #01-284/286/288 Singapore 520829,East,103.934903,1.349271,24 Hours,,,
Giant,Giant Express,Blk 8 Telok Blangah Crescent #01-171 Singapore 090008,Central,103.819181,1.27785,24 Hours,,,
Giant,Giant Express,Blk 291 Yishun St 22 #01-389/391 Singapore 760291,North,103.836525,1.43614,24 Hours,,,
Giant,Giant Express,Blk 102 Yishun Avenue 5 #01-125 Singapore 760102,North,103.828929,1.430877,24 Hours,,,
Giant,Giant Express,Blk 293 Yishun St 22 #01-261 Singapore 760293,North,103.837956,1.436415,24 Hours,,,
Giant,Giant Supermarket,Blk 161 Ang Mo Kio Avenue 4 #01-504 Singapore 560161,North-East,103.839814,1.374125,24 Hours,,,
Giant,Giant Supermarket,Blk 316B Ang Mo Kio St 31 #01-11 Singapore 563316,North-East,103.847692,1.364801,24 Hours,,,
Giant,Giant Supermarket,144 Upper Bukit Timah Road #B1-01 Singapore 588177,Central,103.776106,1.34238,7am - 10pm,,,
Giant,Giant Supermarket,348 Bedok Road #01-01 Bedok Market Place Singapore 469560,East,103.948302,1.331462,24 Hours,,,
Giant,Giant Supermarket,Blk 512 Bishan St 13 #01-524 Singapore 570512,Central,103.849899,1.349646,24 Hours,,,
Giant,Giant Supermarket,Blk 376 Bukit Batok St 31 #01-116 Singapore 650376,West,103.749507,1.358431,24 Hours,,,
Giant,Giant Supermarket,Blk 982 Buangkok Crescent #01-01 Singapore 530982,,103.879399,1.380823,24 Hours,,,
Giant,Giant Supermarket,Blk 118 Aljunied Avenue 2 #01-100 Singapore 380118,Central,103.8874,1.319976,7am - 10pm,,,
Giant,Giant Supermarket,Blk 524A Jelapang Road #03-13/18 Singapore 671524,,103.766242,1.38526,24 Hours,,,
Giant,Giant Supermarket,21 Hougang Street 51 #01-52 Singapore 538719,North-East,103.887372,1.378925,24 Hours,,,
Giant,Giant Supermarket,1 Woodlands Road #01-07 Singapore 677899,North,103.760405,1.379781,8am - 10pm,,,
Giant,Giant Supermarket,Blk 306 Ubi Avenue 1 #01-185 Singapore 400306,East,103.902289,1.329357,24 Hours,,,
Giant,Giant Supermarket,201 Yishun Avenue 2 #01-03 Khatib MRT Station Singapore 769092,North,103.832864,1.417121,24 Hours,,,
Giant,Giant Supermarket,Blk 260 Kim Keat Avenue #01-01 Singapore 310260,,103.857341,1.332143,24 Hours,,,
Giant,Giant Supermarket,Blk 259 Pasir Ris Street 21 #01-27 Singapore 510259,East,103.964631,1.366981,7:30am _ 10pm,,,
Giant,Giant Supermarket,Blk 440 Pasir Ris Drive 4 #01-01 Singapore 510440,East,103.958614,1.369088,24 Hours,,,
Giant,Giant Supermarket,60 Paya Lebar Road #B1-01/05 Singapore 409051,Central,103.892608,1.318773,7am - 10.30pm,,,
Giant,Giant Supermarket,Blk 475 Choa Kang Ave 3 #01-01/10 Singapore 680475,,103.738969,1.377878,24 Hours,,,
Giant,Giant Supermarket,9 Tampines St 32 #01-30 Singapore 529286,East,103.959797,1.354351,7am - 10pm,,,
Giant,Giant Supermarket,845 Geylang Road #01-08 Singapore 400845,Central,103.894359,1.316414,7am - 12am,,,
Giant,Giant Supermarket,Blk 181 Toa Payoh Lorong 4 #01-602/610 Singapore 310181,Central,103.850929,1.333608,24 Hours,,,
Giant,Giant Supermarket,Blk 548 Woodlands Drive 44 #01-37 Singapore 730548,North,103.793931,1.430543,24 Hours,,,
Giant,Giant Supermarket,Blk 768 Woodlands Ave 6 #01-34 Singapore 730768,North,103.797909,1.445394,24 Hours,,,
Giant,Giant Supermarket,Blk 883 Woodlands St 82 #01-498 Singapore 730883,North,103.790778,1.442766,24 Hours,,,
Giant,Giant Supermarket,Blk 418 Yishun Avenue 11 #01-433 Singapore 760418,North,103.847318,1.424655,24 Hours,,,
Giant,Giant Hypermarket,"200 Turf Club Road, The Grandstand #01-01 Singapore 287994",,103.793214,1.33869,Sun - Thurs: 9am - 10pm Fri - Sat: 9am - 11pm,,,
Giant,Giant Hypermarket,2 Jurong East St 21 #01-100 IMM Building Singapore 609601,West,103.746994,1.334107,Mon - Thurs: 9am - 11pm Fri & Sun: 8am - 11pm Sat: 8am _ 12am,,,
Giant,Giant Hypermarket,80 Marine Parade Road #03-27/28 Parkway Parade Singapore 449269,East,103.904909,1.301336,9am - 10pm,,,
Giant,Giant Hypermarket,Blk 638 Jurong West St 61 #03-01 Singapore 640638,West,103.697341,1.341847,8am - 11pm,,,
Giant,Giant Hypermarket,604 Sembawang Road #B1-25 Singapore 758459,North,103.824895,1.441997,Sun - Thurs: 9am - 10.30pm Fri - Sat: 9am - 11pm,,,
Giant,Giant Hypermarket,No. 3 Temasek Boulevard #B1-152-159 Singapore 038983,,103.859712,1.295749,9am - 10pm,,,
Giant,Giant Hypermarket,21 Tampines North Drive 2 #03-01 Singapore 528765,East,103.931895,1.372064,Sun - Thurs: 8am - 12am Fri - Sat: 8am - 2am,,,
Giant,Giant Hypermarket,1 HarbourFront Walk #B1-23 / #01-23 Singapore 098585,Central,103.82312,1.264713,Mon - Fri: 10am - 10pm Sat-Sun: 9am - 10pm,,,
Cold Storage,Cold Storage,"383 Bukit Timah Rd #01-09A, Alocassia Apt, Singapore 259727",Central,103.82722,1.319647,9:00AM - 10:00PM,68365206,,
Cold Storage,Cold Storage,16 Enggor Street #01-05/08 Singapore 079717,,103.844464,1.274522,8:00AM - 10:00PM,"65093897, 65093928",,
Cold Storage,Cold Storage,370 Alexandra Rd #B1-03 to 07 Anchorpoint Singapore 159953,Central,103.805122,1.288779,9:00AM - 10:00PM,64793242,,
Cold Storage,Cold Storage,"12 Kallang Avenue, Aperia, #01-47/51 Singapore 339511",Central,103.863816,1.310532,24 Hours,"68449500, 68449502",,
Cold Storage,Cold Storage,230 Victoria Street #B1-17/18 Bugis Junction Singapore 188024,,103.855279,1.299299,9:00AM - 11:00PM,63361990,,
Cold Storage,Cold Storage,No. 1 Woodlands Square #B1-31/32/33 Causeway Pt Singapore 738099,North,103.785911,1.436174,9:00AM - 10:30PM,"68941236, 68941206",,
Cold Storage,Cold Storage,176 Orchard Roard #B1-09/10 The Centrepoint Singapore 238843,Central,103.839521,1.301661,9:00AM - 10:00PM,"62350737, 62353401, 62353406",,
Cold Storage,Cold Storage,Blk 36H Dunearn Road #01-44 Singapore 309433,,103.83609,1.317403,9:00AM - 10:00PM,62536747,,
Cold Storage,Cold Storage,"442 Orchard Road #B1-01-11 Orchard Hotel, Singapore 238879",Central,103.828949,1.307569,8:00AM - 10:00PM,"62688559, 62688561",,
Cold Storage,Cold Storage,41 Sunset Way #01-01A Clementi Arcade Singapore 597071,West,103.767494,1.323636,9:00AM - 10:00PM,64663181,,
Cold Storage,Cold Storage,501 Bukit Timah Rd Cluny Court #01-02 Singapore 259760,Central,103.814398,1.322684,24 Hours,"67630815, 67630939",,
Cold Storage,Cold Storage,"1 Sengkang Square #B1-25, Compass One Shopping Centre, Singapore 545078",North-East,103.894934,1.391776,9:00AM - 10:00PM,"63863254, 63863304, 63863256",,
Cold Storage,Cold Storage,430 Upper Changi Road #01-47/48/49 East Village Singapore 487048,East,103.946358,1.331864,9:00AM - 10:00PM,"67027460, 67027461, 67027462",,
Cold Storage,Cold Storage,20 Eastwood Road #01-07/09 Eastwood Centre Singapore 486442,,103.955431,1.321406,8:00AM - 10:00PM,"62444530, 62444531",,
Cold Storage,Cold Storage,1 Kim Seng Promenade Great World City #B1-18 / 19 Singapore 237994,,103.831973,1.294202,9:00AM - 10:00PM,67354730,,
Cold Storage,Cold Storage,1 Seletar Road #01-11 Greenwich V Singapore 807011,North-East,103.869335,1.387595,9:00AM - 10:00PM,"64815670, 64815281, 64816953",,
Cold Storage,Cold Storage,20 Greenwood Ave Singapore 289215,,103.806822,1.331484,8:00AM - 10:00PM,64671353,,
Cold Storage,Cold Storage,1 Fifth Ave Guthrie House #01-05 Singapore 268802,,103.795553,1.330781,8:00AM - 10:00PM,64633411,,
Cold Storage,Cold Storage,1 Martitime Square #01-48 to 50 Singapore 099253,,103.820369,1.264303,8:00AM - 11:00PM,62749112,,
Cold Storage,Cold Storage,"No 2 Havelock Road, #B1-19 Singapore 059763",,,,9:00AM - 10:00PM,,,
Cold Storage,Market Place,4 Hillview Rise #02-07 Singapore 667979,West,103.764658,1.363844,9:00AM - 10:00PM,67107161,,
Cold Storage,Cold Storage,"211 Holland Avenue #01-02,04,05 Holland Shopping Ctr Singapore 278967",,103.795523,1.310392,24 Hours,64685566,,
Cold Storage,Cold Storage,"Blk 205 Hougang Street 21 #01-133 / 135 Heartland Mall, Singapore 530205",North-East,103.885011,1.359364,8:00AM - 10:00PM,"63830323, 63830076",,
Cold Storage,Jasons,"2 Orchard Turn,#B4-17-19, Ion Orchard Singapore 238801",Central,103.831378,1.305003,10:00AM - 10:30PM,65091322,,
Cold Storage,Jasons,1 Claymore Drive #01-01 Orchard Towers Singapore 229594,Central,103.829394,1.307595,8:00AM - 10.30PM,62354355,,
Cold Storage,Jasons,31 Oceanway Quayside Isle # 01-26/27 Singapore 098375,,103.841847,1.248016,8:00AM - 8:00PM,"62689986, 62689953",,
Cold Storage,Cold Storage,293 Holland Rd #01-01 Jelita Shopping Ctr Singapore 278628,,103.786012,1.317714,24 Hours,"64693877, 64693878",,
Cold Storage,Cold Storage,5 Stadium Walk #B1-01/05 Leisure Park Singapore 397693,,103.876521,1.302238,9:00AM - 10:30PM,62420818,,
Cold Storage,Cold Storage,"112, #B1-14 East Coast Rd Singapore 428802",East,103.904622,1.305522,10:00AM - 10:00PM,66363094,,
Cold Storage,Cold Storage,930 Yishun Avenue 2 #B1-11 to 16 Northpoint Shopping Centre Singapore 769098,North,103.835854,1.429316,8:00AM - 10:30PM,"67567100 , 64826091",,
Cold Storage,Cold Storage,No 238 Thomson Road #01-28/29 Singapore 307683,Central,103.844065,1.32024,9:00AM - 10:00PM,"63527223, 63527942",,
Cold Storage,Cold Storage,"101 Clementi Road, #01-01 Kent vale Estate, Singapore 129787",West,103.76958,1.30176,9:00AM - 10:00PM,67745396,,
Cold Storage,Cold Storage,"11, Tanjong Katong Road #B1-36 ONE KM Singapore 437157",Central,103.894507,1.314663,9:00AM - 10:00PM,"67022423, 67022426",,
Cold Storage,Market Place,290 Orchard Road #B1-21/22 Paragon Singapore 238859,Central,103.836,1.303857,9:00AM - 10:00PM,67382798,,
Cold Storage,Cold Storage,80 Marine Parade Road #B1-84 Parkway Parade Singapore 449269,East,103.905433,1.300737,9:00AM - 10:30PM,"63449011, 63448749",,
Cold Storage,Cold Storage,68 Orchard Road #B2-15/16 Plaza Singapura Singapore 238839,Central,103.845107,1.300613,9:00AM - 10:30PM,"62386761, 62386763",,
Cold Storage,Market Place,252 North Bridge Rd #B1-01 Raffles City Shopping Centre Singapore 179103,Central,103.853336,1.293863,8:00AM - 11:00PM,63362676,,
Cold Storage,Cold Storage,464-486 Jalan Asas Upper Bukit Timah Road Singapore 678077,Central,103.767605,1.36018,24 Hours,"67631639, 67637258",,
Cold Storage,Cold Storage,1 Cove Avenue Sentosa Arrival Plaza #02-07/10 Singapore 098537,,103.839685,1.246982,8:00AM - 10:00PM,"62749114, 62749132 6",,
Cold Storage,Cold Storage,23 Serangoon Central #B2-44/45 nex Singapore 556083,North-East,103.872938,1.350068,24 Hours,"66344190, 66344189, 66344187",,
Cold Storage,Cold Storage,"2 First Street #01-05/06/12/13/14/15/16, Siglap V Singapore 458278",East,103.923641,1.312784,24 Hours,"64445898, 64448678",,
Cold Storage,Cold Storage,896 Dunearn Road #02-01 Sime Darby Centre Singapore 589472,,103.784064,1.336846,9:00AM - 10:00PM,"64631179, 64631176",,
Cold Storage,Cold Storage,"1 Vista Exchange Green, #B1-02&35/36, The Star Vista, Singapore 138617",,103.787871,1.306936,9:00AM - 11:00PM,"66943224, 66943229",,
Cold Storage,Cold Storage,391A Orchard Road #B2-01-1 Ngee Ann City Singapore 238872,Central,103.835054,1.302711,10:00AM - 9:30PM,"67351266, 67351275, 67351276",,
Cold Storage,Cold Storage,10 Tampines Central 1 Tampines 1 #B1-01/02 Singapore 529536,East,103.945374,1.354236,9:00AM - 10:30PM,"65871783, 65870293, 65870164",,
Cold Storage,Market Place,163 Tanglin Road Tanglin Mall #B1-02/03 Singapore 247933,,103.823825,1.304929,9:00AM - 10:00PM,67340105,,
Cold Storage,Cold Storage,No 81 Clemenceau Avenue #02-18 UE Square Singapore 239917,,103.842547,1.292134,9:00AM - 10:00PM,"67333054, 67331040",,
Cold Storage,Cold Storage,101 Thomson Road #B1-52 Singapore 307591,Central,103.8436,1.316786,9:00AM - 10:00PM,"62509690, 62509691",,
Cold Storage,Cold Storage,1 Harbour Front Walk #01-23B Singapore 098585,Central,103.82233,1.264244,Mon - Fri: 10:00AM - 10:00PM Sat - Sun: 9:00AM - 10:00PM,"62754770, 62759780",,
Cold Storage,Cold Storage,154 West Coast Road #B1-19 West Coast Plaza Singapore 127371,West,103.766246,1.303912,9:00AM - 10:00PM,68724733,,
Cold Storage,Cold Storage,No. 1 Bukit Batok Central Link #B1-01 West Mall Singapore 658713,West,103.749336,1.350205,8:00AM - 10:30PM,"68611580, 68611355",,
Cold Storage,Cold Storage,2 Bayfront Avenue The Shoppes Marina Bay Sands #B2-46 Singapore 018972 Singapore 018972,Central,103.858934,1.283804,Sun - Thur: 9:00AM - 11:00PM Fri - Sat: 9:00AM - 12:00AM,66345261,,
Wet Market,Tiong Bahru Wet Market,"30 Seng Poh Rd, Singapore 168898",,103.832327,1.284862,9:00AM - 8:00PM,,,
Wet Market,Tekka Centre,"Level 1 Tekka Centre, 665 Buffalo Rd, Singapore 210665",,103.850654,1.30624,,,,
Wet Market,Coliwa Department Store Chinatown Complex,"Chinatown Complex, 335 Smith Street, Singapore 050335",Central,103.843163,1.282731,,,,
Wholesale Centre,,"1 Wholesale Centre, Singapore 110001",,,,,,,
Wet Market,Geylang Serai Market,"1 Geyland Serai, Singapore 402001",Central,103.898278,1.316727,,,,
Wet Market,Senoko Fishery Port,"31 Attap Valley Rd, Singapore759908",,103.792457,1.461595,,,,
Wet Market,Whampoa Wet Market,"92 Whampoa Dr, Singapore 320092",Central,103.854114,1.323317,,,,
Wet Market,,"Blk 38A Beo Crescent, Singapore 169982",,,,,,,
Wet Market,Marine Parade Food Centre,Blk 84 Marine Parade Central,East,103.906362,1.302162,,,,
Wet Market,Tanjong Pagar Plaza Market,7 Tanjong Pagar Plaza,Central,103.843163,1.276655,,,,
Wet Market,Chong Pang Market & Food Centre,"104 Yishun Ring Road, Singapore 760104",North,103.828167,1.431377,,,,
Wet Market,,"69 Geylang Bahru, Singapore 330069",Central,103.869968,1.321705,,,,
Wet Market,Empress Market,"7 Empress Rd, Singapore 260007",,103.805676,1.316261,,,,
Wet Market,Telok Blangah Crescent Block 11 Market And Food Centre,"11 Telok Blangah Crescent, Singapore 090011",Central,103.818634,1.277562,,,,
Wet Market,Kebun Baru Market,"226D Ang Mo Kio Avenue 1, Singapore 564226",North-East,103.839183,1.366953,,,,
Wet Market,Ghim Moh Market,"20 Ghim Moh Rd, Singapore 270020",,103.788284,1.311091,,,,
Wet Market,Admiralty Wet Market,"678 Woodlands Ave 6, Singapore 730678",North,103.801559,1.439896,,,,
Wet Market,Holland Drive Market,"44 Holland Drive, Singapore 270044",,103.792836,1.308112,,,,
Wet Market,Siang Heng Fish Merchant,"17 Kalidasa Ave, Singapore 789396",,103.829765,1.38169,,,,
Wet Market,115 Bukit Merah View Market & Food Centre,"115 Bukit Merah View, Singapore 151115",Central,103.822198,1.284691,,,,
Wet Market,Golden Mile Food Centre,"505 Beach Road, Singapore 199583",,103.863855,1.303134,,,,
Wet Market,Toa Payoh Lor 1 Market,"127 Lorong 1 Toa Payoh, Singapore 310127",Central,103.844759,1.337792,,,,
Wet Market,Chung Ling Wet Market,"151 Bishan Street 11, Singapore 571151",Central,103.855223,1.345506,,,,
Wet Market,50A Marine Terrace Market And Food Centre,"50A Marine Terrace, Singapore 441050",,103.915808,1.305811,,,,
Wet Market,Tanjong Pagar Plaza Market,"6 Tanjong Pagar Plaza, Singapore 081006",Central,103.843166,1.276658,,,,
Wet Market,Bukit Batok Street 11 Food Centre,"156 Bukit Batok Street 11, Singapore 650156",West,103.743582,1.348209,,,,
Wet Market,Tampines Round Market & Food Centre,137 Tampines Street 11 Singapore 522137 Tampines Street 11,East,103.944624,1.345582,,,,
Wet Market,Geylang East Centre Market & Food Centre,"117 Aljunied Ave 2, Singapore 380117",Central,103.886937,1.320461,,,,
Wet Market,The Marketplace @ 58,"58 New Upper Changi Rd, Singapore 461058",East,103.941057,1.32429,,,,
Wet Market,Bukit Timah Market & Food Centre,"116 Upper Bukit Timah Rd, Singapore 588172",Central,103.775818,1.340764,,,,
Prime Supermarket,,"Blk 25A Chai Chee Road, #01-459, Singapore 461025",East,103.924029,1.323424,64431827,,,
Prime Supermarket,,"823 Tampines St 81, Singapore 520823",East,103.93409,1.348887,,,,
Prime Supermarket,,"373 Bukit Batok Street 31, Singapore 650373",West,103.750403,1.358978,,,,
Prime Supermarket,,"763 Jurong West Street 75, Singapore 640763",West,103.699035,1.348869,,,,
Prime Supermarket,,Blk 253 Choa Chu Kang Ave 1 #B1-07 to 10 Singapore,West,103.744353,1.3777,,,,
Prime Supermarket,,"Block #01-281, 142 Teck Whye Ln, Block 142, Singapore 680142",West,103.752593,1.380446,,,,
Prime Supermarket,,"263 Compassvale St, Singapore 540263",North-East,103.897475,1.395547,,,,
Prime Supermarket,,"761 Yishun Street 72, Singapore 760761",North,103.833617,1.425064,,,,
Prime Supermarket,,"678 Woodlands Ave 6, Singapore 730678",North,103.802718,1.439479,,,,
Prime Supermarket,,"108 Punggol Field, Singapore 820108",North-East,103.910521,1.395547,,,,
Prime Supermarket,,"125 Defu Lane 10, Singapore 539233",North-East,103.896102,1.357106,,,,
Prime Supermarket,,"1 Upper Aljunied Ln, Singapore 360001",Central,103.880309,1.333767,,,,
Prime Supermarket,,"159A Hougang Street 11, Singapore 531159",North-East,103.880309,1.350928,,,,
Prime Supermarket,,"Blk 962 Jurong West Street 91, #01-300, Singapore 640962",West,103.691997,1.341318,,,,
Prime Supermarket,,"76 Nanyang Dr, Singapore 637331",,103.681354,1.346809,,,,
Yes Supermarket,,"829 Tampines Street 81, 520829",East,103.934546,1.349415,,,,
Yes Supermarket,,"201B Tampines Street 21, Singapore 522201",East,103.952918,1.353444,,,,
Yes Supermarket,,"139 Tampines Street 11, Singapore 521139",East,103.945324,1.345929,,,,
Karthika Supermarket,,"101 Yishun Avenue 5 #01-61, Singapore 760101",North,103.827289,1.431263,,,,
Karthika Supermarket,,"34 Buffalo Rd, Singapore 219796",,103.851438,1.306506,,,,